$GPGSV,4,4,14,37,,,40,40,,,49*759,E,101854.000,A,A*5A*5A42,215,5
$GPRMC,110520.000,A,3543.016368,N,05123.721984,E,0.000,302,120312,,,A*7A1,,,,,,2.55,1.28,2.21*08*085,01,41,215,51*7D2,203,48,13,19,267,*78,-13.8
$GPVTG,302,T,,M,0.000,N,0.000,K,A*1272,322,38,23,46,289,42,01,41,214,49*
$GPZDA,110520.000,12,03,2012,,*507F,0.000,0,120312,,,A*7F346.000,A

$GPGGA,110521.000,3543.016368,N,05123.721984,E,1,10,0.82,1292.254,M,-13.832,M,,*N,0.000,K,A*1320312,,,A*7D
$GPRMC,101609.0
$GPRMC,101642.

$GPGSV,3,3,10,16,20,1
7333
$GPGLL,3543.016368,N,05123.721984,E,110521.000,A,A*50
$GPRMC,101854.000,A,3543.017075,N,05123.712349,E,0.0
$GPGSA,A,3,20,32,23,30,16,13,01,07,31,04,,,1.51,0.82,1.27*0D$GPZDA,101642.000,12,
$GPVT
$GPVTG,0,T,,M,0.000,N,0.000,K,A*
$GPGSV,3,1,12,20,85,183,39,32,58,128,48,23,57,318,29,30,39,082,38*76E001,12,03,2012,,*5D03,2012,,*5CPG

$GPGGA,101855.000,3543.017075,N,
$GPGSV,3,2,12,16,35,117,47,13,33,288,35,01,21,201,50,07,17,224,50*7C.8101643.000,A,A*51,40,,,2.10,,23,,,20*7
            
8 
  
1 
     
$GPRMC,110522.000,A,3543.016368,N,05123.721984,E,0.000,302,120312,,,A*78,46,289,27,01,41,214,19*711,214,50*7130,11,21,203,52,13,19,268,36*728114
$GPVTG,302,T,,M,0.000,N,0.000,K,A*1231,34,044,16,30,32,108,16,11,21,202,
$GPZDA,110522.000,12,03,2012,,*52D00,3543.
D0
$GPGLL,3543.010
$GPR

$GPGGA,110523.000,3543.016368,N,05123.721984,E,1,10,0.82,1292.254,M,-13.832,M,,*7*13
$GPGSA,A,3,20
$GPRMC,101856.000,A,3543.017075,N,05123.712349,E,0.000,0,1203
71,,
$GPGLL,3543.016368,N,05123.721984,E,110523.000,A,A*52
$GPZDA,101644.000,1
$GPVTG,0,T,,M,0.000,N,0.000,K,A*
$GPGSA,A,3,20,32,23,30,16,13,01,07,31,04,,,1.51,0.82,1.27*0D2012,,*5C,101823.000,12,03,2012,,*5E03,201

$GPGGA,101857.00
$GPGSV,4,1,14,20,85,183,39,32,58,128,48,23,57,318,28,30,39,082,37*7997.601,M,-13.832,M,,,-13.8101645.000,A,A*570.0,34,11,2ZDA,101233.000
$GPVTG,302,T,,M,0.000,N,0.000,K,A*1200,327,*7F,00,327,,18,,,20*765,18,,,
$GPZDA,110523.000,12,03,2012,,*53,3543.017075,N,05123.712349,E,0.0

$GPGGA,110524.000,3543.016368,N,05123.721984,E,1,10,0.82,1292.254,M,-13.832,M,,*.000
$
$GPVTG,0,T,,M,0.000,N,0.000,K,A*130,T,,M,0.000,N,0.000,K,A*130.000,N
$GPZ
7610
$GPGLL,3543.016368,N,05123.721984,E,110524.000,A,A*550,1

$GPGGA,101858.000,3543.017075,N,05123.712349,E,1
$GPGSA,A,3,20,32,23,30,16,13,01,07,31,04,,,1.51,0.82,1.27*0D01,M,-46.000,A,A*54,05123.7181,,,,,0,0
$GPZDA,101
A
F 
     
$GPGSV,3,1,12,20,85,183,39,32,58,128,48,23,57,318,28,30,39,082,37*78,10,,,20*471,M,-13
$GPGSV,3,1,10,32,74,085,17,20,72,322,18,23,46,289
$GPGSV,3,2,12,16,35,117,47,13,33,288,36,01,21,201,50,07,17,224,51*7E,7,1.29,1297
$GPGS
$GPGSV,3,2,10,31,34,044,16,30,32,108,17,11,21,202
$GPGSV,3,3,12,31,16,043,24,04,12,314,40,11,06,191,,10,00,314,*731614.000,A,3543.010868
$GPGSV,3,3,10,16,20,135,17,04,00,327,*7E,
$GPRMC,110525.000,A,3543.016368,N,05123.721984,E,0.000,302,120312,,,A*7F,05123.712349,E,0.000,0,120312,,,A*7D114,E,0.000,0,120312,,,A*76.000,0,1
$GPVTG,302,T,,M,0.000,N,0.000,K,A*12GPVTG,0,T,,M,0.000,N,0.000,K,A*130,T
$GPZDA,110525.000,12,03,2012,,*55PZDA,101859.000,12,03,2012,,*53,1

$GPGGA,110526.000,3543.016368,N,05123.721984,E,1,10,0.82,1292.254,M,-13.832,M,,*5,1.82,1297.521,M,-13.832,M,,*416,1298.297,M,-13.832,M,,97.601,M,-23.718114,E,10
748.
$GPRMC,101615.000,A,3543.01
$GPGSV,3,3,10,16,20
$GPGSV,3,3,12,31,16,043,24,04,12,314,40,11,06,191,,10,00,314,*73RMC,101900.000,A,3543.017075,N,05123.712349,E,0.000,0,120312,,,A
$GPRMC,110526.000,A,3543.016368,N,05123.721984,E,0.000,302,120312,,,A*7C
$GPVTG,0,T,,M,0.000,N,0.000,K,A*130,T,,M,1.052,N,1.950,K,A*180.000,N
$G
$GPVTG,302,T,,M,0.000,N,0.000,K,A*127.000,12,03,2012,,*5A.000,1

$GPGGA,
$GPZDA,110526.000,12,03,2012,,*56349,E,1,5,1.82,1297.521,M,-13.832

$GPGGA,110527.000,3543.016368,N,05123.721984,E,1,10,0.649.0003,20,23,01,30,11,,,  
2
D 
                  
$GPGSA,A,3,32,20,23,01,11,,,,,,,,2.07,1.82,0.98*0E0C1
7B*0
$GPGLL,3543.016368,N,05123.721984,E,110528.001,A,A*5810,32,74,085,18,20,72,322,17,23,46,289,20,01,41,214,1
$GPGSA,A,3,20,32,23,30,16,13,01,07,31,04,,,1.51,0.82,1.27*0D000,A,3543.
$GPGSV,3,2,10,31,34,044,16,30,32,108,16,11,21,20
$GPGSV,3,1,12,20,85,183,39,32,58,128,46,23,57,318,30,30,39,082,36*7E01617.000,A,3543.01
$GPGSV,3,3,10,16,20,135,15,04,00,327,*7C,*7F,00,
$GPGSV,3,2,12,16,35,117,46,13,33,288,34,01,21,201,50,07,17,224,50*7C123.712349,E,0.000,0,120312,,,A*72A*77114,E,0.000,0,120312,,,A*7E3GP
$GPGSV,3,3,12,31,16,043,22,04,12,314,40,11,06,191,,10,00,314,*75K,A*13A*130,T,,M,0.000,N,0.000,K,A*13G
$
$GPZDA,101902.000,12,03
$GPRMC,110528.001,A,3543.016368,N,05123.721984,E,0.000,302,120312,,,A*735,N,05123.712349,E,1,5,1.82,1297.521,M,-13.832,M,,*4,,*408,1297.601,M,-1
$GPVTG,302,T,,M,0.000,N,0.000,K,A*12                     
4
F 
         
$GPRMC,
$GPGSV,3,1,12,20,85,183,38,32,58,128,46,23,57,318,29,30,39,082,34*75327,,18,,,20*730,120312,,,A*78
$
$GPRMC,101903.000,A,3543.017075,N,0
$GPGSV,3,2,12,16,35,117,46,13,33,288,33,01,21,201,49,07,17,224,50*73ZDA,101618.000,12,03,2012,,*58,2
$
$
$GPVTG,0,T,,M,0.000,N,0.000,K,A
$GPGSV,3,3,12,31,16,043,23,04,12,314,40,11,06,191,,10,00,314,*742,,*5D,*5C,101757.000,12,03,2012,,*52



$GPGGA,101904.000,3543.
$GPRMC,110529.001,A,3543.016368,N,05123.721984,E,0.000,302,120312,,,A*72M,-13.832,M68,N,05123.718114,E,101652.000                     
5
8 
    
$GPZDA,110530.000,12,03,2012,,*5146,289,20,01,41,214,20*7314,50*74

$GPGGA,110531.000,3543.016368,N,05123.721984,E,1,10,0.82,1292.254,M,-13.832,M,,*44,16,30,32,108,17,11,21,202,20,13,20,269,16*7D69,23*788,27*7C3.010868,N,05123.7
7214
$GPGLL,3543.016368,N,05123.721984,E,110531.000,A,A*51,17,04,00,327,*7E,327,*7E327,,18,,,19*7B*13
$GPGSA,A,
$GPGSA,A,3,20,32,23,30,16,13,01,07,31,04,,,1.51,0.82,1.27*0D,120312,,,A*752,,,A*75E,0.000,0,120312,,,A*71*7AZDA,101620.0
$GPGSV,4,1,13,20,85,183,38,32,58,128,46,23,57,318,33,30,39,082,36*7A,0.000,N,0.000,K,A*13*
$
$GPZDA,101905.000,12,03,2012,,*5B012,,*5E75
$GPGSV,4,2,13,16,35,117,45,13,33,288,31,01,21,201,49,07,17,224,51*75,E,1,5,1.82,1297.521,M,-13.832,M,,*432,M,,*4297.601,M,-13.832,M2,,34
$GPGSV,4,3,13,31,16,043,23,04,12,31          
7
A 
                  
$GPGGA,110532.000,3543.016368,N,05123.721984,E,1,10,0.82,1292.254,M,-13.832,M,,*,25*7C8,27*7901,31,30,11,,,,,,1.48,1.15,0.
$GPRMC,101621.000,A,354
$GPGSV,3,3,10
71,2
$GPGLL,3543.016368,N,05123.721984,E,110532.000,A,A*5228,23,45
$GPRMC,101906.000,A,3543.017075,N,05123.7123
$GPGSA,A,3,20,32,23,30,16,13,01,07,31,04,,,1.51,0.82,1.27*0D20312,,,A*721.000,12,03,2012,,*5203
$GPVTG,0,T,,M,0.000,N,0.
$GPGSV,4,1,13,20,84,182,38,32,58,128,46,23,57,318,33,30,39,082,33*7F2012,,*58012,,*5F2,,*5
$GPZDA,101800.000,1

$GPGGA,101907.000,3543.0
$GPGSV,4,2,13,16,35,117,45,13,33,288,32,01,21,201,50,07,17,224,51*7E,1,8,1.08,1297.601,M,-000,K,A*135,286,42
$GPZD
$GPGSV,3,3,09,16,,,2

$GPGSV,4,3,14,31,16,043,24,04,12,314,40,11,06,191,,10,00,314,*7201512.
$GPGSV,3,1,10,32,74,085,18,20,72,322,17,23,46,289,20,01,4
$GPGSV,4,4,14,37,,,39,40,,,52*713,51,13,19,268,33*738114,E,1,7,1
$GPRMC,110533.000,A,3543.016368,N,05123.721984,E,0.000,302,120312,,,A*78,269,16*7D20,269,28*70*784541,01,42
71
$GPGLL,3543.010868,N,05123.7181
$
$GPVTG,302,T,,M,0.000,N,0.000,K,A*1200,327,*7F4,00,327,*79,18,,,27*700,3
$GPZDA,110533.000,12,03,2012,,*52,3543.017075,N,05123.712349,E,0.0

$GPGGA,110534.000,3543.016368,N,05123.721984,E,1,10,0.82,1292.254,M,-13.832,M,,*.000,1
$GPVTG,0,T,,M,0.000,N,0.000,K,A*131.736,K,A*1D.000,N,0.000,K,A*13,35
$GPZ
7710
$GPGLL,3543.016368,N,05123.721984,E,110534.000,A,A*54D,2

$GPGGA,101909.000,3543.017075,N,05123.712349,E,1
$GPGSA,A,3,20,32,23,30,16,13,01,07,31,04,,,1.51,0.82,1.27*0DE,101624.000,A,A*50.718114,E3,
                    
5 
     
$GPZDA,101550.000,12,03,2012,,*57    
$GPGSA,A,3,32,20,23,01,11,,,,
$GPGSV,4,2,13,16,35,117,45,13,33,288,33,01,21,201,49,07,17,224,50*7613
$GPGSV,3,1,10,32,74,085,20,20,72,322,19,23,46,289,20,01,41,214,19
$GPGSV,4,3,13,31,16,043,26,04,12,314,39,11,06,191,,10,00,314,*7901551.
$GPGSV,3,2,10,31,34,044,17,30,32,108,17,11,21,202,18,13,2
$GPGSV,4,4,13,40,,,37*7BB4E,30,11,13,,,,,,2.42,1
$GPRMC,110535.000,A,3543.016368,N,05123.721984,E,0.000,302,120312,,,A*7E00,327,*7B,18,,,27*72*43322,40,23,45,2
$GPRMC,101910.000,A,3543.017075,N
$GPVTG,302,T,,M,0.000,N,0.000,K,A*1220312,,,A*71000,0,120312,,,A*76,,A*7
$GPZDA,110535.000,12,03,2012,,*54
$GPVTG,0,T,,M,0.000,N,0.000,K,A*

$GPGGA,110536.000,3543.016368,N,05123.721984,E,1,10,0.82,1292.254,M,-13.832,M,,*000,12,03,2012,,*5B2,

$GPGGA,101911.000,3543.017075,N,05123.712349,E,1,5,1.82,1
75.5
$GPGLL,3543.016368,N,05123.721984,E,110536.000,A,A*566.000,A,A*521.48,1.15,11,,,
           
    
C 
     
$GPGSV,2,
$GPGSA,A,3,20,23,32,16,13,01,07,31,04,,,,1.54,0.87,1.27*0E001,42,215,51*798,N,05123.718114,E,101553.
$GPGSV,3,1,10,3
$GPGSV,4,1,13,20,84,182,37,23,58,319,31,32,58,128,46,30,39,082,26*78,22,203,51,13,19,268,35*782.15*001,8,1.09,1297.601,M
$GPGSV,3,2,10,3
$GPGSV,4,2,13,16,35,117,45,13,33,288,34,01,21,201,50,07,17,224,51*781,,,20*4315,51*75,05123.718114,E,1,7,1.16,1297.6
$GPGSV,3,3,10,16,20
$GPGSV,4,3,13,31,16,043,25,04,12,314,39,11,06,191,,10,00,314,*7ARMC,101912.000,A,3543.017075,N,05123.712349,E,0.000,0,120312,,,A
$GPGSV,4,4,13,40,,,49*720.000,0,120312,,,A*7443.
$GPRMC,110537.000,A,3543.016368,N,05123.721984,E,0.000,302,120312,,,A*7C130,T,,M,0.000,N,0.0
$GPZDA,101912.000,12,03,2012,,*5D,12,03,2012,,*55,1
$GPVTG,302,T,,M,0.000,N,0.000,K,A*1243.017075,N,05123.712349,E,1,5,1.82,
$GPZDA,110537.000,12,03,2012,,*56,M,,*408,1297.601,M,-13.8,05123.7

$GPGSV,3,2,10,31,34,044,15,30,32,108,16,11
$GPGSV,4,1,13,20,84,182,36,23,58,319,30,32,58,128,46,30,39,082,24*7A0868,N,05123.7181
$GP
$GPGSV,3,3,10,16,20,135,16,04,00,327,*7F28,04,
$GPGSV,4,2,13,16,35,117,46,13,33,288,33,01,21,201,50,07,17,224,51*7C05123.712349,E,0.000,0,120312,,,A*72,0,120312,,,A*715123.718114,E,0.
$GPGSV,4,3,13,31,16,043,24,04,12,314,39,11,06,191,,10,00,314,*7B0,K,A*130,N,0.000,K,A*13
$GPVTG,0,T,,M,0.0
$GPZDA,101913.000,12,
$GPGSV,4,4,13,40,,,52*78*5B0
$GPZDA,101807.0

$G
$GPRMC,110538.000,A,3543.016368,N,05123.721984,E,0.000,302,120312,,,A*73M,,*4,M,-13.832,M,,*4E,1,7,1.16,1297.601,M,-29.000,A,A*5D1555.000,      
$GPVTG,302,T,,M,0.00                  
$GPRMC,101914.000,A,3543.017075,N
$GPGSV,4,2,13,16,35,117,45,13,33,288,31,01,21,201,50,07,17,224,51*7D0312,,,A*7A00,3543.010
$GPZDA,101629
$
$GPVTG,0,T,,M,0.000,N,0.000,K
$GPGSV,4,3,13,31,16,043,25,04,12,314,38,11,06,191,,10,00,314,*7B012,,*5B,12,03,2012,,*5A,101808.000,12,03

$GPGGA,101915.000,354
$GPGSV,4,4,13,40,,,51*7B,1,5,1.82,1297.521,M,-13
$GPRMC,110539.000,A,3543.016368,N,05123.721984,E,0.000,302*55.31,0.97181               
7
8 
                      
$GPRMC,110540.000,A,3543.016368,N,05123.721984,E,0.000,302,120312,,,A*7C32,M,,*44.000,3543.010868,N,05123.
$GPGSA,A,3,32,20,23,01,11,,,,,,,,2.07
$GPVTG,302,T,,M,0.000,N,0.000,K,A*1214,E,0.000,0,120312,,,A*7D
$GPGSV,3,
$GPZDA,110540.000,12,03,2012,,*5646,289,19,01,41,214,18*7041,214,4

$GPGGA,110541.000,3543.016368,N,05123.721984,E,1,9,0.87,1292.254,M,-13.832,M,,*444,16,30,32,108,17,11,21,202,19,13,20,269,*703,20,269,28*7F*714600,3543.010868,N
85
$GPGLL,3543.016368,N,05123.721984,E,110541.000,A,A*566,04,00,327,*7F17,04,00,327,*7E,19,,,18*7D0,31,110,33
$GPGSA,A,3,20,23,32,16,13,01,07,31,04,,,,1.54,0.87,1.27*0E,120312,,,A*77,0,120312,,,A*72114,E,0.000,0,120312,,,A*73A
$GPGSV,3,1,12,20,84,182,36,23,58,319,32,32,58,128,46,30,39,082,23*790,K,A*130,T,,M,0.000,N,0.0
$GPZDA,101916.000,12,03,2012,,*59,12,03,2
$GPGSV,3,2,12,16,35,117,45,13,33,288,32,01,21,201,50,07,17,224,51*78283,N,05123.71

$GPGGA,102911.000,3543.019748,N,05123.716737,E,1,8,1
$GPGSV,3,3,12,31,16,043,23,04,12,314,3         
9 
              
5 
      
34
$GPG
B,
$GPGLL,3543.016368,N,05123.721984,E,110542.000,A,A*55,11,11,17,200,49,04,03,325,,07,03,217,*43600,
$GPGSA,
$GPGSA,A,3,20,23,32,16,13,01,07,31,04,,,,1.54,0.87,1.27*0E,3543.019748,N,05123.716737,E,0.000,261,120312,,,A*78A*723
$GPGSV,3,1,12,20,84,182,36,23,58,319,33,32,58,128,46,30,39,082,24*7FGPVTG,261,T,,M,0.000,N,0.000,K,A*16738.000
$GPZDA,101844.000,12,03,2
$GPGSV,3,2,12,16,35,117,45,13,33,288,31,01,21,201,50,07,17,224,52*781

$GPGGA,102912.000,3543.019748,N,05123.716737,E,1,8,1.39,1292.719,
$GPGSV,3,3,12,31,16,043,24,04,12,314,3         
8 
              
4 
      
$GPZDA,110543.000,12,03,2012,,*557E14,E,0.000,0,120312,
$GPGSA,A,3

$GPGGA,110544.000,3543.016368,N,05123.721984,E,1,9,0.87,1292.254,M,-13.832,M,,*4000,N,0.000,K,A*
$GPGSV,2,1,08,32,74,081,,
$GPRMC,1016
$GP
$G
$GPGSV,3,3,11,11,1
D2
$GPGLL,3543.016368,N,05123.721984,E,110544.000,A,A*530,
$GPRMC,101846.000,A,3543
$GPRMC,102913.000,A,3543.
$GPGSA,A,3,20,23,32,16,13,01,07,31,04,,,,1.54,0.87,1.27*0E00,
$GPZDA,101634.000,12,03,201
$GPVTG,0,T,,M,0.979,N,1.81
$GPGSV,3,1,12,20,84,182,36,23,58,319,32,32,58,128,46,30,39,082,26*7C12,,*5
$GPZDA,102913.000,12,03,2012,,*5F

$GPGGA,101847.000,3543.017
$GPGSV,3,2,12,16,35,117,45,13,33,288,28,01,21,201,50,07,17,224,51*7319,M,-13.31635.000,A,A*5032,23,45,0,              

             
1

$GPGSV,3,1,10,32,74,085,31,20,72,322,38,2
$GPGSV,4,2,13,1
$GPVTG,302,T,,M,0.000,N,0.000,K,A*12,07,17,224,51*70,7,1.16,1297.601,M,-
$GPZDA,110545.000,12,03,2012,,*5330,32,108,36,1
$GPGSV,4,3,13,31,1

$GPGGA,110546.000,3543.016368,N,05123.721984,E,1,10,0.82,1292.254,M,-13.832,M,,*V,3,3,10,16,20,135,21,04,00,
$GPGSV,4,4,13,37,,,40*7B1312,,,A*7F,32,20,23,0
$
$G
72C,
$GPGLL,3543.016368,N,05123.721984,E,110546.000,A,A*510312,,,A*7D.718114,E,0.000,0,120312,,,A*764,080,2
$GP
$GPGSA,A,3,20,23,32,30,16,13,01,07,31,04,,,1.51,0.82,1.27*0DK,A*120,T,,M,0.000,N,0.000,K,A*1
$GPZDA,10
$GPZDA,110515.001
$GPGSV,4,1,14,20,84,182,36,23,58,319,32,32,58,128,45,30,39,082,28*703543.016368,N,05123.721984,E,1,10,0.82,1292.254,M,-13.832,M,,*,1297.
$GPGSV,4,2,14,16,35,117,45,13,33,288,34                        
2

      
77 
$GPGSV,3,1,12,20
$GPVTG,302,T,,M,0.000,N,0.000,K,A*1230,39,082,38*7CMC,101638.000,A,3543.
$GPZDA,110547.000,12,03,2012,,*5104,00,327,*7C
$GPGSV,3,2,12,16,35

$GPGGA,110548.000,3543.016368,N,05123.721984,E,1,10,0.82,1292.254,M,-13.832,M,,*12,,,A*745123.718114,E,0.000,0,1203
$GPGSV,3,3,12,31,16,043,28,04,12,314,24,11,0
7C91
$GPGLL,3543.016368,N,05123.721984,E,110548.000,A,A*5F000,K,A*1
$GPZDA,101850.0
$GPRMC,110517.000,A,3543.01
$GPGSA,A,3,20,23,32,30,16,13,01,07,31,04,,,1.51,0.82,1.27*0D3.712349,E,1,7,1.28,1297.521,M,-13.832,M,,*4E,1,7,1.28,1
$GP
$GPGSV,3,1,12,20,84,182,36,23,58,319,32             

      
  
B

 
        
783,
$GPGLL,3543.016368,N,05
$GPRMC,110549.000,A,3543.016368,N,05123.721984,E,0.000,302,120312,,,A*7550,13,20,2
$GPGSA,A,3,20,32,23,30,16,13,01,07,31,04,,,1.51,0.82,1.27*0D0
$GPVTG,302,T,,M,0.000,N,0.000,K,A*125,32,04,00,327,*79,18,
$GPGSV,4,1,14
$GPZDA,110549.000,12,03,2012,,*5F18,30,30,39,082,38*7FN,05123.7123

$GPGGA,110611.000,3543.016368,N,05123.721984,E,1,9,0.87,1292.254,M,-13.832,M,,*4
E
$GPGLL,3543.016368,N,05123.721984,E,110611.000,A,A*50
$GPGSA,A,3,20,23,32,16,13,01,07,31,04,,,,1.54,0.87,1.27*0E
$GPGSV,3,1,12,20,84,181,36,23,58,319,37,32,58,128,46,30,39,082,*7E
$GPGSV,3,2,12,16,36,116,46,13,33,288,41,01,21,201,51,07,17,224,51*7C
$GPGSV,3,3,12,31,16,043,34,04,13,314,28,11,05,191,,10,00,314,*7E
$GPRMC,110611.000,A,3543.016368,N,05123.721984,E,0.000,302,120312,,,A*7B
$GPVTG,302,T,,M,0.000,N,0.000,K,A*12
$GPZDA,110611.000,12,03,2012,,*51

$GPGGA,110612.000,3543.016368,N,05123.721984,E,1,9,0.87,1292.254,M,-13.832,M,,*4
D
$GPGLL,3543.016368,N,05123.721984,E,110612.000,A,A*53
$GPGSA,A,3,20,23,32,16,13,01,07,31,04,,,,1.54,0.87,1.27*0E
$GPGSV,4,1,14,20,84,181,35,23,58,319,38,32,58,128,46,30,39,082,*73
$GPGSV,4,2,14,16,36,116,46,13,33,288,41,01,21,201,50,07,17,224,51*7C
$GPGSV,4,3,14,31,16,043,35,04,13,314,27,11,05,191,,10,00,314,*71
$GPGSV,4,4,14,37,,,40,40,,,50*7D
$GPRMC,110612.000,A,3543.016368,N,05123.721984,E,0.000,302,120312,,,A*78
$GPVTG,302,T,,M,0.000,N,0.000,K,A*12
$GPZDA,110612.000,12,03,2012,,*52